name,category,address,latitude,longitude,notes
Fallback School Main Office Candidate,AED awareness candidate,100 Learning Lane,41.5610,-90.4810,Fallback planning data; confirm AED presence access signage maintenance and hours locally.
Fallback School Gym Entrance Candidate,AED awareness candidate,120 Learning Lane,41.5592,-90.4798,Fallback planning data; ask staff and verify locally before relying on this location.
Fallback Community Center Candidate,AED awareness candidate,300 Community Drive,41.5651,-90.4850,Fallback planning data; access and hours may vary and must be confirmed locally.
Fallback Library Front Desk Candidate,AED awareness candidate,50 Reading Road,41.5520,-90.4721,Fallback planning data; call facility or ask front desk to verify AED details.
Fallback Sports Complex Candidate,AED awareness candidate,800 Fieldhouse Ave,41.5704,-90.4925,Fallback planning data; event access may vary and must be confirmed locally.
